{
"type": "FeatureCollection",
"name": "malls",
"crs": { "type": "name", "properties": { "name": "urn:ogc:def:crs:OGC:1.3:CRS84" } },
"features": [
{ "type": "Feature", "properties": { "Name": "BIG BAZZAR" }, "geometry": { "type": "Point", "coordinates": [ 73.76756, 20.0049 ] } },
{ "type": "Feature", "properties": { "Name": "Pinacle Mall" }, "geometry": { "type": "Point", "coordinates": [ 73.7821, 20.00054 ] } },
{ "type": "Feature", "properties": { "Name": "Reliance Mall" }, "geometry": { "type": "Point", "coordinates": [ 73.79471, 20.01038 ] } },
{ "type": "Feature", "properties": { "Name": "Croma" }, "geometry": { "type": "Point", "coordinates": [ 73.76387, 20.00765 ] } },
{ "type": "Feature", "properties": { "Name": "City Centre Mall" }, "geometry": { "type": "Point", "coordinates": [ 73.78486, 20.00733 ] } }
]
}
